{"spotdata":[{"id":0,"name":"ネコカフェ・キューリグ","category":"Cafe・Bar","point":1,"latitude":33.586852,"longitude":130.393033,"hint1":"15匹の猫が待つネコカフェ","hint2":"「雁林町通り」から「林毛町通り」に入る","hint3":"WATTビル１F","web":"-","address":"福岡市中央区大名1-10-15WATTビル１F","tel":"092-985-3202","info":"11:00~22:00　第一、第三、第五火曜定休"},{"id":1,"name":"ラ･フランス","category":"Cafe・Bar","point":1,"latitude":33.573526,"longitude":130.4093013,"hint1":"福岡で1位になったメロンパン","hint2":"小さなメロンパンで出来たエッフェル塔","hint3":"緑色のひさしが目印","web":"-","address":"福岡県福岡市南区大楠２丁目１７－３","tel":"092-524-6622","info":"10:00～19:00　火曜定休"},{"id":2,"name":"黄福堂","category":"restaurant","point":1,"latitude":33.5670794,"longitude":130.4135207,"hint1":"全国でも珍しいカレーうどん専門店","hint2":"黄色いスープが福を運ぶ","hint3":"高宮駅周辺","web":"-","address":"福岡市南区高宮３－７－６","tel":"092-523-6660","info":"11:30～23:30（ただし日曜のみ21:30まで）　不定休"},{"id":3,"name":"上海モンナリーサ","category":"restaurant","point":1,"latitude":33.5888575,"longitude":130.3956687,"hint1":"「刀削麺」が自慢のレストラン","hint2":"外から厨房が見える","hint3":"「大名小前えのき通り」沿い","web":"-","address":"福岡市中央区大名2-1-50 1F","tel":"092-781-2180","info":"11:00~24:00(日祝日は:11:00～22:00)　不定休"},{"id":4,"name":"marbre blanc caf?","category":"Cafe・Bar","point":1,"latitude":33.588402,"longitude":130.394741,"hint1":"可愛い外観のスイーツカフェ","hint2":"半地下にあるせいで入り口も窓も低い","hint3":"「大名おほり通り」に入ってすぐ左側","web":"-","address":"福岡市中央区大名2-1-31","tel":"092-714-2520","info":"12:00~24:00　不定休"},{"id":5,"name":"あま本","category":"restaurant","point":1,"latitude":33.5882103,"longitude":130.3929273,"hint1":"鶏料理が自慢の居酒屋","hint2":"鶏料理を始めとする和食メニューが豊富","hint3":"大名おほり通り","web":"-","address":"福岡市中央区大名2-2-48","tel":"092-751-3986","info":"11:30～14:00　17:30～24:00　日曜定休"},{"id":6,"name":"醸造酒場 アジート","category":"Cafe・Bar","point":1,"latitude":33.5869355,"longitude":130.3948605,"hint1":"隠れ家的な雰囲気のバー","hint2":"大名おほり通り","hint3":"AIビル A館302号室","web":"-","address":"福岡県福岡市中央区 大名2-1-30 AIビル A館302号室","tel":"050-3726-3020","info":"18:00~25:00　月曜定休"},{"id":7,"name":"松楠居","category":"viewspot","point":1,"latitude":33.5883298,"longitude":130.3947244,"hint1":"大名では貴重な立派な門構えの日本家屋","hint2":"ジョーキュウ醤油の3代目社長が1936年に建てた住居","hint3":"新雁林町通り入って右手","web":"-","address":"福岡市中央区大名2-1-16","tel":"092-738-7155","info":"不明"},{"id":8,"name":"やぶ金","category":"restaurant","point":1,"latitude":33.5883298,"longitude":130.3947244,"hint1":"日本家屋で食べる手打ち蕎麦","hint2":"松楠居（しょうなんきょ）","hint3":"立派な門構えが目印","web":"-","address":"福岡市中央区大名2-1-16 1F","tel":"092-761-0207","info":"11:30~21:00　水曜定休"},{"id":9,"name":"かし和","category":"restaurant","point":1,"latitude":33.5874243,"longitude":130.394105,"hint1":"水炊きのおいしい和食料理屋","hint2":"木造民家を利用した落ち着いた雰囲気","hint3":"雁林町通り","web":"-","address":"福岡市中央区大名1-12-27","tel":"092-751-7130","info":"7:00~25:00(日曜: 17:00~24:00)　月曜定休"},{"id":10,"name":"ボンジュール","category":"restaurant","point":1,"latitude":33.587091,"longitude":130.3929551,"hint1":"クロワッサンが人気のパン屋","hint2":"前を歩くとンの香りと活気ある雰囲気が伝わる","hint3":"雁林町通り","web":"-","address":"福岡市中央区大名1-10-18","tel":"092-771-3360","info":"7:30~20:00　日曜定休"},{"id":11,"name":"Swindle Factory","category":"Cafe・Bar","point":1,"latitude":33.5870743,"longitude":130.392194,"hint1":"訪れるたびに進化し、変化を続けるカフェ","hint2":"個性的な外観が特徴","hint3":"雁林町通り","web":"-","address":"福岡市中央区大名1-9-17","tel":"092-722-1408","info":"12:00~24:00"},{"id":12,"name":"あぷろ","category":"restaurant","point":1,"latitude":33.5873965,"longitude":130.3926856,"hint1":"夜遅くまで人々でにぎわう韓国料理","hint2":"カラフルなハングルの看板が目印","hint3":"雁林町通り","web":"-","address":"福岡市中央区大名1-9-22 大名ハーモニービル 1F","tel":"092-714-5105","info":"17:00~25:00(金曜、土曜、祝前日: 17:00~26:00)"},{"id":13,"name":"一風堂　総本店","category":"restaurant","point":1,"latitude":33.5878048,"longitude":130.3958437,"hint1":"とんこつラーメンといえばここ","hint2":"紺屋町東通り","hint3":"木の看板が目印。福岡の老舗ラーメン店。","web":"-","address":"福岡市中央区大名1-13-14","tel":"092-771-0880","info":"11:00~23:00（日によって変動有り）　年末年始休業"},{"id":14,"name":"ジョーキュウ醤油","category":"shopping","point":1,"latitude":33.5879104,"longitude":130.3951577,"hint1":"福岡藩御用達の醤油屋","hint2":"赤煉瓦造りの煙突","hint3":"紺屋町東通り","web":"http://www.jokyu.co.jp/","address":"福岡市中央区大名１丁目12－15","tel":"092-741-5360","info":"9：00～18：00 土・日・祝日定休"},{"id":15,"name":"東長寺","category":"viewspot","point":1,"latitude":33.5948461,"longitude":130.4144533,"hint1":"日本最古の弘法大師創建の寺院","hint2":"日本最大の木彫り坐像がある","hint3":"大博通り沿い","web":"-","address":"福岡市博多区御供所2-4","tel":"092-291-4459","info":"9:00 ～ 17:00"},{"id":16,"name":"石村萬盛堂","category":"shopping","point":1,"latitude":33.5959513,"longitude":130.404268,"hint1":"山笠追い山の終点にある菓子店","hint2":"博多銘菓「鶴乃子」を生み出した","hint3":"昭和通沿い、須崎問屋街入口","web":"-","address":"福岡市博多区須崎町2-1","tel":"092-291-1592","info":"09:00?-?20:00　年中無休"},{"id":17,"name":"BY TRICO","category":"shopping","point":1,"latitude":33.5867132,"longitude":130.3916329,"hint1":"世界中のデザイナーズ家具の集まるインテリアショップ","hint2":"ネオンで光る店名が目印","hint3":"大正通りから入ってすぐ右手","web":"http://www.bytrico.com","address":"福岡市中央区大名1-8-25","tel":"092-739-1088","info":"12:00～20:00　水曜定休"},{"id":18,"name":"BiVi Fukuoka","category":"shopping","point":1,"latitude":33.5850858,"longitude":130.4029488,"hint1":"unico、ACTUSなど人気インテリアが揃うビル","hint2":"ビルの上には大画面がついている","hint3":"渡辺通り、地下鉄天神南駅から南へ歩く","web":"-","address":"福岡市中央区渡辺通4-1-36","tel":"092-737-7704","info":"10:00～20:00　店舗による"},{"id":19,"name":"NOCE 福岡店","category":"shopping","point":1,"latitude":33.587297,"longitude":130.397938,"hint1":"おしゃれな家具が安く揃うインテリアショップ","hint2":"深緑の入口が目印","hint3":"ビックカメラ天神の近く","web":"-","address":"福岡市中央区天神２－４－１１パシフィーク天神１F","tel":"092-715-5880?","info":"11:00~20:00　年中無休"},{"id":20,"name":"3COINS","category":"shopping","point":1,"latitude":33.590138,"longitude":130.400188,"hint1":"格安でかわいい小物が買える人気店","hint2":"店内すべて315円","hint3":"IMSビルの地下2F","web":"-","address":"福岡市中央区天神1-7-11 IMS B2F","tel":"092-725-0517","info":"10:00～20:00　不定休"},{"id":21,"name":"山本文具堂","category":"shopping","point":1,"latitude":33.5890102,"longitude":130.3914635,"hint1":"昭和7年創業の老舗画材店","hint2":"明治通り沿い","hint3":"地下鉄赤坂駅4番出口周辺","web":"http://www.yamabum.com","address":"福岡市中央区大名2丁目4-32","tel":"092-751-4342","info":"10:00～19:00　第3月曜日、年末年始等"},{"id":22,"name":"天神 LOFT","category":"shopping","point":1,"latitude":33.5869495,"longitude":130.4015794,"hint1":"旬なモノがたくさん揃う雑貨・ホビー用品チェーン","hint2":"黄色い看板が目印","hint3":"渡辺通り、地下鉄天神南駅から南へ歩く","web":"-","address":"福岡県福岡市中央区渡辺通４丁目９?２５","tel":"092-724-6210","info":"10:00～20:00　年中無休"},{"id":23,"name":"ブックスキューブリック・けやき通り店","category":"shopping","point":1,"latitude":33.584588,"longitude":130.388855,"hint1":"けやき通りの小さな本屋","hint2":"お店の方が選んだ本が並ぶ","hint3":"左右反転のK","web":"-","address":"福岡市中央区赤坂2丁目1-12ネオグランデ赤坂１Ｆ","tel":"092-711-1180","info":"11:00 から 20:00　第二第三月曜日定休"},{"id":24,"name":"ジュンク堂　福岡店","category":"shopping","point":1,"latitude":33.5908296,"longitude":130.400585,"hint1":"本ならなんでも揃う、天神を代表する大型の本屋","hint2":"緑の看板が目印","hint3":"メディアモール天神1~4階","web":"-","address":"福岡市中央区天神１丁目１０?１３ メディアモール天神1~4階","tel":"092-738-3322","info":"10:00 から 21:00　年末年始休業"},{"id":25,"name":"TAO CAF?","category":"Cafe・Bar","point":1,"latitude":33.5818168,"longitude":130.4070069,"hint1":"商店街に佇むモダンな雰囲気のカフェ・バー","hint2":"清川サンロード商店街の日赤通り側","hint3":"TAOが目印","web":"-","address":"福岡市中央区清川1-8-8　３F","tel":"092-526-7101","info":"11:30-15:00／20:00-翌5:00　年中無休"},{"id":26,"name":"art space tetra","category":"artspace","point":1,"latitude":33.5961124,"longitude":130.4039458,"hint1":"福岡から現代アート発信し続けるアートスペース","hint2":"昭和通り、近くには川も流れている","hint3":"須崎町、古いビルに白いひさしが目印","web":"-","address":"福岡県福岡市博多区須崎町２?１５","tel":"092-262-6560","info":"イベントに依る"},{"id":27,"name":"MODERN TIMES","category":"Cafe・Bar","point":1,"latitude":33.585694,"longitude":130.399524,"hint1":"知る人ぞ知る昭和54年創業の福岡カフェバー","hint2":"今泉公園の近く","hint3":"レンガ造りのDSビル2階","web":"-","address":"福岡県福岡市中央区今泉1-15-4?DSビル　2Ｆ","tel":"092-712-6653","info":"18：00～翌4：00　日曜定休"},{"id":28,"name":"かろのうどん","category":"restaurant","point":1,"latitude":33.5924518,"longitude":130.4110341,"hint1":"元祖博多うどんの店","hint2":"筆文字の黒い看板が目印","hint3":"店名は全てひらがな","web":"-","address":"福岡県福岡市博多区上川端町２?１","tel":"092-291-6465??","info":"11時00分～19時00分　火曜定休"},{"id":29,"name":"新天町","category":"viewspot","point":1,"latitude":33.590474,"longitude":130.398188,"hint1":"戦後間もなく出来た福岡を代表する場所","hint2":"日本一大きい時計塔が毎時、時を告げる","hint3":"西鉄福岡（天神）駅すぐの商店街","web":"-","address":"福岡県福岡市中央区天神２丁目９","tel":"092-741-8331","info":"店舗に依る"},{"id":30,"name":"Square","category":"restaurant","point":1,"latitude":33.5861384,"longitude":130.4002684,"hint1":"ソファに座ってスペイン料理が食べられるダイニング","hint2":"今泉公園の近く","hint3":"今泉Burgビル3F","web":"-","address":"福岡市中央区今泉 1-13-5 3F","tel":"092-741-7122","info":"18:00～翌2:00　不定休"},{"id":31,"name":"Mixy Diner","category":"restaurant","point":1,"latitude":33.5844803,"longitude":130.3991768,"hint1":"今泉の隠れ家的ダイニング","hint2":"カラフルなワインの看板が目印","hint3":"天神通り弐番館1F","web":"-","address":"福岡市中央区今泉 1-18-1 3F","tel":"092-732-3098","info":"11:30～24:00　水曜定休"},{"id":32,"name":"博多一幸舎　博多本店","category":"restaurant","point":1,"latitude":33.5882885,"longitude":130.4171254,"hint1":"とんこつの味を守る伝統のラーメン店","hint2":"ANAクラウンプラザホテル近く","hint3":"金文字の看板が目印","web":"-","address":"福岡県福岡市博多区博多駅前3?23?12 光和ビル103","tel":"092-432-1190","info":"11:00～23:30（日曜のみ～21:00）　無休"},{"id":33,"name":"博多元助 薬院本店","category":"restaurant","point":1,"latitude":33.5809084,"longitude":130.3966326,"hint1":"博多ならではの豚骨魚介つけ麺","hint2":"六角形のマークが目印","hint3":"地下鉄薬院大通駅の近く","web":"-","address":"福岡県福岡市中央区薬院２丁目２?２ 薬院ビル 1F","tel":"092-714-7739","info":"11:30～23:00(売り切れ次第終了)"},{"id":34,"name":"わらく","category":"shopping","point":1,"latitude":33.5866911,"longitude":130.3954243,"hint1":"地球にやさしいオーガニック生活雑貨店","hint2":"大名紺屋町通り","hint3":"町家の2階。1階はクリーニング店","web":"-","address":"福岡県中央区 大名1-15-19","tel":"092-741-8875","info":"12：00～20：00"},{"id":35,"name":"警固公園","category":"other","point":1,"latitude":33.5887242,"longitude":130.398999,"hint1":"天神のど真ん中にある憩いの公園","hint2":"ソラリアプラザ前","hint3":"警固神社の隣","web":"-","address":"福岡県福岡市中央区天神２丁目２","tel":"なし","info":"なし"},{"id":36,"name":"大濠公園","category":"other","point":1,"latitude":33.585984,"longitude":130.377588,"hint1":"福岡有数の水景公園","hint2":"池の周りをぐるりと囲む","hint3":"お濠の跡の池を中心とした公園","web":"-","address":"福岡県福岡市中央区大濠公園1-2","tel":"なし","info":"なし"},{"id":37,"name":"舞鶴公園","category":"other","point":1,"latitude":33.585233,"longitude":130.383189,"hint1":"歴史跡が残る公園","hint2":"鴻臚館跡がある","hint3":"福岡城跡を中心とした歴史公園","web":"-","address":"福岡県福岡市中央区城内１","tel":"なし","info":"なし"},{"id":38,"name":"ラウンドワン 福岡天神店","category":"other","point":1,"latitude":33.5891742,"longitude":130.3970464,"hint1":"最新ゲームが揃うアミューズメント施設","hint2":"カラオケやボウリングも楽しめる","hint3":"天神西通りすぐ","web":"-","address":"福岡県福岡市中央区天神２丁目６?１２","tel":"092-720-8101","info":"24時間営業(一部施設を除く)"},{"id":39,"name":"承天寺","category":"viewspot","point":1,"latitude":33.5952239,"longitude":130.4170419,"hint1":"川上音二郎が眠る、博多祇園山笠発祥の地","hint2":"近くにも多くの寺院が並ぶ御供所周辺","hint3":"国道202号線近く","web":"-","address":"福岡県福岡市博多区博多駅前1-29-9","tel":"092-431-3570","info":"9：00～16：00"},{"id":40,"name":"IMS","category":"shopping","point":1,"latitude":33.590115,"longitude":130.400188,"hint1":"巨大な吹き抜けは圧巻、街の情報発信スポット","hint2":"渡辺通沿いの11階建て","hint3":"名前はアルファベット3文字","web":"http://www.ims.co.jp/","address":"福岡県福岡市中央区天神１丁目７－１１","tel":"092-733-2001","info":"10:00～20:00　不定休"},{"id":41,"name":"konya2023","category":"artspace","point":1,"latitude":33.587609,"longitude":130.395486,"hint1":"築45年のクリエイティブスペース","hint2":"ギャラリー、カフェ、屋上にはUFOパーキング","hint3":"大名紺屋町、大きな門が目印","web":"http://konya2023.travelers-project.info/","address":"福岡市中央区大名１丁目１４－２８ 第一松村ビル","tel":"092-984-6292","info":"11:00-20:00　不定休"},{"id":42,"name":"キャナルシティ博多","category":"shopping","point":1,"latitude":33.590115,"longitude":130.410591,"hint1":"天神と博多をつなぐ「都市の劇場」","hint2":"30分毎に噴水ショーが始まる","hint3":"カラフルな外観は全て日本の伝統色","web":"http://www.canalcity.co.jp/","address":"福岡県福岡市博多区住吉１ー２","tel":"092-282-2525","info":"店舗による"}]}